[ [ {
  "city" : "Paris",
  "iata_code" : "FRPLY",
  "lat" : "48.8449",
  "lon" : "2.37352",
  "name" : "Paris Gare de Lyon",
  "uic" : 87686006
}, {
  "city" : "Paris",
  "iata_code" : "FRPNO",
  "lat" : "48.8802",
  "lon" : "2.355151",
  "name" : "Paris Gare du Nord",
  "uic" : 87271007
}, {
  "city" : "Paris",
  "iata_code" : "FRPMO",
  "lat" : "48.8412",
  "lon" : "2.320514",
  "name" : "Paris Montparnasse",
  "uic" : 87391003
}, {
  "city" : "Paris",
  "iata_code" : "FRPST",
  "lat" : "48.8767",
  "lon" : "2.358424",
  "name" : "Paris Gare de l’Est",
  "uic" : 87113001
}, {
  "city" : "Paris",
  "iata_code" : "FRPAZ",
  "lat" : "48.8423",
  "lon" : "2.364891",
  "name" : "Paris Austerlitz",
  "uic" : 87547000
}, {
  "city" : "Paris",
  "iata_code" : "FRPSL",
  "lat" : "48.876242",
  "lon" : "2.325331",
  "name" : "Paris St-Lazare",
  "uic" : 87384008
}, {
  "city" : "Paris",
  "iata_code" : "FRPBE",
  "lat" : "48.83917",
  "lon" : "2.38278",
  "name" : "Paris Bercy",
  "uic" : 87686667
} ], [ {
  "city" : "Strasbourg",
  "iata_code" : "FRAEG",
  "lat" : "48.5850",
  "lon" : "7.734584",
  "name" : "Strasbourg",
  "uic" : 87212027
} ], [ {
  "city" : "Colmar",
  "iata_code" : "FRAEJ",
  "lat" : "48.0732",
  "lon" : "7.346967",
  "name" : "Colmar",
  "uic" : 87182014
} ], [ {
  "city" : "Sacy",
  "iata_code" : "FREAH",
  "lat" : "49.2148",
  "lon" : "3.994632",
  "name" : "Champagne-Ardenne TGV",
  "uic" : 87171926
} ], [ {
  "city" : "Les Trois-Domaines",
  "iata_code" : "FREAJ",
  "lat" : "48.9785",
  "lon" : "5.270954",
  "name" : "Meuse TGV",
  "uic" : 87147322
} ], [ {
  "city" : "Forbach-Boulay-Moselle",
  "iata_code" : "FRBQT",
  "lat" : "49.1892",
  "lon" : "6.9013184",
  "name" : "Forbach",
  "uic" : 87193003
} ], [ {
  "city" : "Metz",
  "iata_code" : "FRADE",
  "lat" : "49.1095",
  "lon" : "6.176593",
  "name" : "Metz",
  "uic" : 87192039
} ], [ {
  "city" : "Thionville",
  "iata_code" : "FRXTH",
  "lat" : "49.3539",
  "lon" : "6.169543",
  "name" : "Thionville",
  "uic" : 87191007
} ], [ {
  "city" : "Lyon",
  "iata_code" : "FRLPD",
  "lat" : "45.7606",
  "lon" : "4.859355",
  "name" : "Lyon Part-Dieu",
  "uic" : 87723197
}, {
  "city" : "Lyon",
  "iata_code" : "FRLPE",
  "lat" : "45.7485",
  "lon" : "4.825733",
  "name" : "Lyon Perrache",
  "uic" : 87722025
}, {
  "city" : "Lyon",
  "iata_code" : "FRLSP",
  "lat" : "45.766010",
  "lon" : "4.827057",
  "name" : "Lyon St-Paul",
  "uic" : 87721159
} ], [ {
  "city" : "Torcy",
  "iata_code" : "FRXCC",
  "lat" : "46.7653",
  "lon" : "4.499513",
  "name" : "Le Creusot TGV",
  "uic" : 87694109
} ], [ {
  "city" : "Chessy",
  "iata_code" : "FRMLV",
  "lat" : "48.8699",
  "lon" : "2.78272",
  "name" : "Marne-la-Vallée—Chessy",
  "uic" : 87111849
} ], [ {
  "city" : "Nancy",
  "iata_code" : "FRENC",
  "lat" : "48.6899",
  "lon" : "6.174583",
  "name" : "Nancy",
  "uic" : 87141002
} ], [ {
  "city" : "Mulhouse",
  "iata_code" : "FRAEK",
  "lat" : "47.7422",
  "lon" : "7.342396",
  "name" : "Mulhouse",
  "uic" : 87182063
} ], [ {
  "city" : "Meroux-Moval",
  "iata_code" : "FRTJA",
  "lat" : "47.5859",
  "lon" : "6.897687",
  "name" : "Belfort—Montbéliard TGV",
  "uic" : 87300822
} ], [ {
  "city" : "Les Auxons",
  "iata_code" : "FRTJB",
  "lat" : "47.3074",
  "lon" : "5.953195095",
  "name" : "Besançon-Franche-Comté TGV",
  "uic" : 87300863
} ], [ {
  "city" : "Dijon",
  "iata_code" : "FRABA",
  "lat" : "47.3234",
  "lon" : "5.027208",
  "name" : "Dijon Ville",
  "uic" : 87713040
} ], [ {
  "city" : "Mâcon",
  "iata_code" : "FRMLT",
  "lat" : "46.2829",
  "lon" : "4.778876",
  "name" : "Mâcon—Loché TGV",
  "uic" : 87725705
}, {
  "city" : "Mâcon",
  "iata_code" : "FRHGU",
  "lat" : "46.3026",
  "lon" : "4.824887",
  "name" : "Mâcon Ville",
  "uic" : 87725689
} ], [ {
  "city" : "Nîmes",
  "iata_code" : "FRFNI",
  "lat" : "43.8323",
  "lon" : "4.365845",
  "name" : "Nîmes Centre",
  "uic" : 87775007
} ], [ {
  "city" : "Montpellier",
  "iata_code" : "FRMPL",
  "lat" : "43.6047",
  "lon" : "3.880674",
  "name" : "Montpellier St-Roch",
  "uic" : 87773002
} ], [ {
  "city" : "Avignon",
  "iata_code" : "FRAVG",
  "lat" : "43.9216",
  "lon" : "4.786079",
  "name" : "Avignon TGV",
  "uic" : 87318964
}, {
  "city" : "Avignon",
  "iata_code" : "FRAES",
  "lat" : "43.9419",
  "lon" : "4.805281",
  "name" : "Avignon Centre",
  "uic" : 87765008
} ], [ {
  "city" : "Cabriès",
  "iata_code" : "FRAIE",
  "lat" : "43.4552",
  "lon" : "5.317534",
  "name" : "Aix-en-Provence TGV",
  "uic" : 87319012
} ], [ {
  "city" : "Marseille",
  "iata_code" : "FRMSC",
  "lat" : "43.3027",
  "lon" : "5.380407",
  "name" : "Marseille St-Charles",
  "uic" : 87751008
} ], [ {
  "city" : "Chalon-sur-Saône",
  "iata_code" : "FRXCD",
  "lat" : "46.7816",
  "lon" : "4.843454",
  "name" : "Chalon-sur-Saône",
  "uic" : 87725002
} ], [ {
  "city" : "Saverdun",
  "iata_code" : "FRFPU",
  "lat" : "43.239357",
  "lon" : "1.57061",
  "name" : "Saverdun",
  "uic" : 87611368
} ], [ {
  "city" : "Beaune",
  "iata_code" : "FRXBV",
  "lat" : "47.0231",
  "lon" : "4.848379",
  "name" : "Beaune",
  "uic" : 87713545
} ], [ {
  "city" : "Nice",
  "iata_code" : "FRNIC",
  "lat" : "43.7046",
  "lon" : "7.261904",
  "name" : "Nice Ville",
  "uic" : 87756056
} ], [ {
  "city" : "Antibes",
  "iata_code" : "FRXAT",
  "lat" : "43.5858",
  "lon" : "7.119498",
  "name" : "Antibes",
  "uic" : 87757674
} ], [ {
  "city" : "Cannes",
  "iata_code" : "FRJCA",
  "lat" : "43.5538",
  "lon" : "7.019682",
  "name" : "Cannes",
  "uic" : 87757625
} ], [ {
  "city" : "Saint-Raphaël",
  "iata_code" : "FRXSK",
  "lat" : "43.4236",
  "lon" : "6.769083",
  "name" : "St-Raphaël—Valescure",
  "uic" : 87757526
} ], [ {
  "city" : "Les Arcs-sur-Argens",
  "iata_code" : "FRXRS",
  "lat" : "43.4555",
  "lon" : "6.482498",
  "name" : "Les Arcs—Draguignan",
  "uic" : 87755447
} ], [ {
  "city" : "Toulon",
  "iata_code" : "FRTLN",
  "lat" : "43.1284",
  "lon" : "5.929293",
  "name" : "Toulon",
  "uic" : 87755009
} ], [ {
  "city" : "Remiremont",
  "iata_code" : "FRRNT",
  "lat" : "48.0164",
  "lon" : "6.598855",
  "name" : "Remiremont",
  "uic" : 87144451
} ], [ {
  "city" : "Épinal",
  "iata_code" : "FREPL",
  "lat" : "48.1780",
  "lon" : "6.441787",
  "name" : "Épinal",
  "uic" : 87144006
} ], [ {
  "city" : "Saint-Dié-des-Vosges",
  "iata_code" : "FRXTD",
  "lat" : "48.2822",
  "lon" : "6.948656",
  "name" : "St-Dié",
  "uic" : 87144014
} ], [ {
  "city" : "Lunéville",
  "iata_code" : "FRLNE",
  "lat" : "48.5882",
  "lon" : "6.49727",
  "name" : "Lunéville",
  "uic" : 87141150
} ], [ {
  "city" : "Saverne",
  "iata_code" : "FRSNE",
  "lat" : "48.7445",
  "lon" : "7.3620802",
  "name" : "Saverne",
  "uic" : 87212225
} ], [ {
  "city" : "Sarrebourg",
  "iata_code" : "FRSBG",
  "lat" : "48.7381",
  "lon" : "7.05285",
  "name" : "Sarrebourg",
  "uic" : 87215012
} ], [ {
  "city" : "Châlons-en-Champagne",
  "iata_code" : "FRXCR",
  "lat" : "48.9553",
  "lon" : "4.348656",
  "name" : "Châlons-en-Champagne",
  "uic" : 87174003
} ], [ {
  "city" : "Vitry-le-François",
  "iata_code" : "FRBFO",
  "lat" : "48.7181",
  "lon" : "4.587581",
  "name" : "Vitry-le-François",
  "uic" : 87174276
} ], [ {
  "city" : "Bar-le-Duc",
  "iata_code" : "FRXBD",
  "lat" : "48.7733",
  "lon" : "5.166822",
  "name" : "Bar-le-Duc",
  "uic" : 87175042
} ], [ {
  "city" : "Reims",
  "iata_code" : "FRRHE",
  "lat" : "49.2590",
  "lon" : "4.024435",
  "name" : "Reims Ville",
  "uic" : 87171009
} ], [ {
  "city" : "Rethel",
  "iata_code" : "FRBDT",
  "lat" : "49.5044",
  "lon" : "4.369566",
  "name" : "Rethel",
  "uic" : 87172270
} ], [ {
  "city" : "Charleville-Mézières",
  "iata_code" : "FRXCZ",
  "lat" : "49.7679",
  "lon" : "4.724952",
  "name" : "Charleville-Mézières",
  "uic" : 87172007
} ], [ {
  "city" : "Sedan",
  "iata_code" : "FRXSW",
  "lat" : "49.6950",
  "lon" : "4.930373",
  "name" : "Sedan",
  "uic" : 87172254
} ], [ {
  "city" : "Lille",
  "iata_code" : "FRLLE",
  "lat" : "50.6392",
  "lon" : "3.075796",
  "name" : "Lille-Europe",
  "uic" : 87223263
}, {
  "city" : "Lille",
  "iata_code" : "FRADJ",
  "lat" : "50.6366",
  "lon" : "3.06987",
  "name" : "Lille-Flandres",
  "uic" : 87286005
} ], [ {
  "city" : "Ablaincourt-Pressoir",
  "iata_code" : "FRTHP",
  "lat" : "49.861154",
  "lon" : "2.83233",
  "name" : "Haute-Picardie TGV",
  "uic" : 87313882
} ], [ {
  "city" : "Roissy-en-France",
  "iata_code" : "FRMLW",
  "lat" : "49.0037",
  "lon" : "2.570892",
  "name" : "Aéroport Paris Roissy Charles de Gaulle CDG T2",
  "uic" : 87001479
} ], [ {
  "city" : "Arras",
  "iata_code" : "FRQRV",
  "lat" : "50.2867",
  "lon" : "2.781942",
  "name" : "Arras",
  "uic" : 87342014
} ], [ {
  "city" : "Redesson",
  "iata_code" : "FRFNI",
  "lat" : "43.816765",
  "lon" : "4.507571",
  "name" : "Nîmes Pont-du-Gard",
  "uic" : 87775064
} ], [ {
  "city" : "Sète",
  "iata_code" : "FRXSY",
  "lat" : "43.4125",
  "lon" : "3.69656",
  "name" : "Sète",
  "uic" : 87773200
} ], [ {
  "city" : "Agde",
  "iata_code" : "FRXAG",
  "lat" : "43.3173",
  "lon" : "3.466203",
  "name" : "Agde",
  "uic" : 87781278
} ], [ {
  "city" : "Béziers",
  "iata_code" : "FRBZR",
  "lat" : "43.3363",
  "lon" : "3.218873",
  "name" : "Béziers",
  "uic" : 87781005
} ], [ {
  "city" : "Narbonne",
  "iata_code" : "FRXNA",
  "lat" : "43.1904",
  "lon" : "3.00591",
  "name" : "Narbonne",
  "uic" : 87781104
} ], [ {
  "city" : "Perpignan",
  "iata_code" : "FRPGF",
  "lat" : "42.6963",
  "lon" : "2.879779",
  "name" : "Perpignan",
  "uic" : 87784009
} ], [ {
  "city" : "Montbard",
  "iata_code" : "FRGWE",
  "lat" : "47.6187",
  "lon" : "4.33616",
  "name" : "Montbard",
  "uic" : 87713131
} ], [ {
  "city" : "Douai",
  "iata_code" : "FRXDN",
  "lat" : "50.3717",
  "lon" : "3.089986",
  "name" : "Douai",
  "uic" : 87345009
} ], [ {
  "city" : "Massy",
  "iata_code" : "FRDJU",
  "lat" : "48.7258",
  "lon" : "2.261254",
  "name" : "Massy TGV",
  "uic" : 87393702
}, {
  "city" : "Massy",
  "iata_code" : "FRMPU",
  "lat" : "48.7264",
  "lon" : "2.2575281",
  "name" : "Massy—Palaiseau",
  "uic" : 87393579
} ], [ {
  "city" : "Saint-Pierre-des-Corps",
  "iata_code" : "FRXSH",
  "lat" : "47.3861",
  "lon" : "0.72355",
  "name" : "St-Pierre-des-Corps",
  "uic" : 87571240
} ], [ {
  "city" : "Poitiers",
  "iata_code" : "FRPIS",
  "lat" : "46.5823",
  "lon" : "0.333241",
  "name" : "Poitiers",
  "uic" : 87575001
} ], [ {
  "city" : "Angoulême",
  "iata_code" : "FRANG",
  "lat" : "45.6536",
  "lon" : "0.164608",
  "name" : "Angoulême",
  "uic" : 87583005
} ], [ {
  "city" : "Bordeaux",
  "iata_code" : "FRBOJ",
  "lat" : "44.8259",
  "lon" : "-0.556697",
  "name" : "Bordeaux St-Jean",
  "uic" : 87581009
} ], [ {
  "city" : "Le Mans",
  "iata_code" : "FRAET",
  "lat" : "47.9950",
  "lon" : "0.19014",
  "name" : "Le Mans",
  "uic" : 87396002
} ], [ {
  "city" : "Angers",
  "iata_code" : "FRACL",
  "lat" : "47.4646",
  "lon" : "-0.55682",
  "name" : "Angers St-Laud",
  "uic" : 87484006
} ], [ {
  "city" : "Nantes",
  "iata_code" : "FRNTE",
  "lat" : "47.2161",
  "lon" : "-1.542356",
  "name" : "Nantes",
  "uic" : 87481002
} ], [ {
  "city" : "Rennes",
  "iata_code" : "FRRNS",
  "lat" : "48.1035",
  "lon" : "-1.672744",
  "name" : "Rennes",
  "uic" : 87471003
} ], [ {
  "city" : "Laval",
  "iata_code" : "FRACR",
  "lat" : "48.0762",
  "lon" : "-0.76",
  "name" : "Laval",
  "uic" : 87478404
} ], [ {
  "city" : "Le Havre",
  "iata_code" : "FRAEZ",
  "lat" : "49.4930",
  "lon" : "0.125677",
  "name" : "Le Havre",
  "uic" : 87413013
} ], [ {
  "city" : "Rouen",
  "iata_code" : "FRURD",
  "lat" : "49.4488",
  "lon" : "1.094087",
  "name" : "Rouen Rive Droite",
  "uic" : 87411017
} ], [ {
  "city" : "Mantes-la-Jolie",
  "iata_code" : "FRMTE",
  "lat" : "48.9898",
  "lon" : "1.70337",
  "name" : "Mantes-la-Jolie",
  "uic" : 87381509
} ], [ {
  "city" : "Versailles",
  "iata_code" : "FRDHT",
  "lat" : "48.7958",
  "lon" : "2.1358827",
  "name" : "Versailles-Chantiers",
  "uic" : 87393009
} ], [ {
  "city" : "Saumur",
  "iata_code" : "FRACN",
  "lat" : "47.2690",
  "lon" : "-0.07136",
  "name" : "Saumur",
  "uic" : 87487603
} ], [ {
  "city" : "Louvigny",
  "iata_code" : "FREAM",
  "lat" : "48.9478",
  "lon" : "6.169838",
  "name" : "Lorraine TGV",
  "uic" : 87142109
} ], [ {
  "city" : "Hyères",
  "iata_code" : "FRXHE",
  "lat" : "43.1089",
  "lon" : "6.124223",
  "name" : "Hyères",
  "uic" : 87755629
} ], [ {
  "city" : "Lyon - Aéroport St-Exupéry",
  "iata_code" : "FRJDQ",
  "lat" : "45.7211",
  "lon" : "5.074969",
  "name" : "Lyon St-Exupéry TGV",
  "uic" : 87762906
} ], [ {
  "city" : "Menton",
  "iata_code" : "FRXMT",
  "lat" : "43.7744",
  "lon" : "7.4933",
  "name" : "Menton",
  "uic" : 87756486
} ], [ {
  "city" : "Valence",
  "iata_code" : "FRVAF",
  "lat" : "44.9280",
  "lon" : "4.893273",
  "name" : "Valence Ville",
  "uic" : 87761007
}, {
  "city" : "Valence",
  "iata_code" : "FRVLA",
  "lat" : "44.9915",
  "lon" : "4.978703",
  "name" : "Valence TGV",
  "uic" : 87763029
} ], [ {
  "city" : "Montélimar",
  "iata_code" : "FRXMK",
  "lat" : "44.5591",
  "lon" : "4.744792",
  "name" : "Montélimar",
  "uic" : 87764001
} ], [ {
  "city" : "Orange",
  "iata_code" : "FRXOG",
  "lat" : "44.1373",
  "lon" : "4.819594",
  "name" : "Orange",
  "uic" : 87765107
} ], [ {
  "city" : "Miramas",
  "iata_code" : "FRMAZ",
  "lat" : "43.5807",
  "lon" : "5.000264",
  "name" : "Miramas",
  "uic" : 87753004
} ], [ {
  "city" : "Bourg-en-Bresse",
  "iata_code" : "FRXBK",
  "lat" : "46.2004",
  "lon" : "5.215063",
  "name" : "Bourg-en-Bresse",
  "uic" : 87743005
} ], [ {
  "city" : "Chambéry",
  "iata_code" : "FRCMF",
  "lat" : "45.5713",
  "lon" : "5.919547",
  "name" : "Chambéry Challes-les-Eaux",
  "uic" : 87741009
} ], [ {
  "city" : "Bellegarde-sur-Valserine",
  "iata_code" : "FRXBF",
  "lat" : "46.1094",
  "lon" : "5.823483",
  "name" : "Bellegarde-sur-Valserine",
  "uic" : 87745000
} ], [ {
  "city" : "Annemasse",
  "iata_code" : "FRQNJ",
  "lat" : "46.1992",
  "lon" : "6.23652",
  "name" : "Annemasse",
  "uic" : 87745497
} ], [ {
  "city" : "Thonon-les-Bains",
  "iata_code" : "FRXTS",
  "lat" : "46.3690",
  "lon" : "6.481669",
  "name" : "Thonon-les-Bains",
  "uic" : 87745646
} ], [ {
  "city" : "Évian-les-Bains",
  "iata_code" : "FRXEB",
  "lat" : "46.3979",
  "lon" : "6.577457",
  "name" : "Évian-les-Bains",
  "uic" : 87745679
} ], [ {
  "city" : "Saint-Jean-de-Maurienne",
  "iata_code" : "FRHPN",
  "lat" : "45.2775",
  "lon" : "6.354716",
  "name" : "St-Jean-de-Maurienne—Arvan",
  "uic" : 87742320
} ], [ {
  "city" : "Modane",
  "iata_code" : "FRAGR",
  "lat" : "45.1934",
  "lon" : "6.658161",
  "name" : "Modane",
  "uic" : 87742007
} ], [ {
  "city" : "Saint-Étienne",
  "iata_code" : "FRHHD",
  "lat" : "45.4434",
  "lon" : "4.399722",
  "name" : "St-Étienne Châteaucreux",
  "uic" : 87726000
} ], [ {
  "city" : "Dole",
  "iata_code" : "FRACE",
  "lat" : "47.0961",
  "lon" : "5.488105",
  "name" : "Dole Ville",
  "uic" : 87713412
} ], [ {
  "city" : "Besançon",
  "iata_code" : "FRABG",
  "lat" : "47.2470",
  "lon" : "6.022003",
  "name" : "Besançon Viotte",
  "uic" : 87718007
} ], [ {
  "city" : "Carcassonne",
  "iata_code" : "FRCCF",
  "lat" : "43.2180",
  "lon" : "2.351824",
  "name" : "Carcassonne",
  "uic" : 87615286
} ], [ {
  "city" : "Toulouse",
  "iata_code" : "FRXYT",
  "lat" : "43.6112",
  "lon" : "1.453616",
  "name" : "Toulouse Matabiau",
  "uic" : 87611004
}, {
  "city" : "Toulouse",
  "iata_code" : "FRTAR",
  "lat" : "43.593438",
  "lon" : "1.417986",
  "name" : "Toulouse - St-Cyprien Arènes",
  "uic" : 87446179
} ], [ {
  "city" : "Grenoble",
  "iata_code" : "FRGNB",
  "lat" : "45.1915",
  "lon" : "5.714584",
  "name" : "Grenoble",
  "uic" : 87747006
} ], [ {
  "city" : "Aix-les-Bains",
  "iata_code" : "FRXAI",
  "lat" : "45.6882",
  "lon" : "5.909371",
  "name" : "Aix-les-Bains—Le Revard",
  "uic" : 87741132
} ], [ {
  "city" : "Annecy",
  "iata_code" : "FRNCY",
  "lat" : "45.9020",
  "lon" : "6.121835",
  "name" : "Annecy",
  "uic" : 87746008
} ], [ {
  "city" : "Calais",
  "iata_code" : "FRSTH",
  "lat" : "50.9026",
  "lon" : "1.811286",
  "name" : "Calais Fréthun",
  "uic" : 87281071
}, {
  "city" : "Calais",
  "iata_code" : "FRAEA",
  "lat" : "50.952613",
  "lon" : "1.848185",
  "name" : "Calais Ville",
  "uic" : 87317263
} ], [ {
  "city" : "Boulogne-sur-Mer",
  "iata_code" : "FRAEB",
  "lat" : "50.7157",
  "lon" : "1.60964",
  "name" : "Boulogne-sur-Mer Ville",
  "uic" : 87317586
} ], [ {
  "city" : "Calais",
  "iata_code" : "FREA",
  "lat" : "50.953152",
  "lon" : "1.849123",
  "name" : "Calais-Ville",
  "uic" : 8731726
} ], [ {
  "city" : "Dunkerque",
  "iata_code" : "FRADI",
  "lat" : "51.0305",
  "lon" : "2.368961",
  "name" : "Dunkerque",
  "uic" : 87281006
} ], [ {
  "city" : "Lens",
  "iata_code" : "FRXLE",
  "lat" : "50.4268",
  "lon" : "2.828254",
  "name" : "Lens",
  "uic" : 87345025
} ], [ {
  "city" : "Béthune",
  "iata_code" : "FRXBH",
  "lat" : "50.5214",
  "lon" : "2.64055",
  "name" : "Béthune",
  "uic" : 87342006
} ], [ {
  "city" : "Hazebrouck",
  "iata_code" : "FRHZK",
  "lat" : "50.7250",
  "lon" : "2.54129",
  "name" : "Hazebrouck",
  "uic" : 87286302
} ], [ {
  "city" : "Étaples",
  "iata_code" : "FRETA",
  "lat" : "50.5169",
  "lon" : "1.64231",
  "name" : "Etaples—Le Touquet",
  "uic" : 87317065
} ], [ {
  "city" : "Verton",
  "iata_code" : "FRCVU",
  "lat" : "50.4158",
  "lon" : "1.64805",
  "name" : "Rang-du-Fliers—Verton",
  "uic" : 87317057
} ], [ {
  "city" : "Wasquehal",
  "iata_code" : "FRCKH",
  "lat" : "50.6786",
  "lon" : "3.1380315",
  "name" : "Croix—Wasquehal",
  "uic" : 87286716
} ], [ {
  "city" : "Roubaix",
  "iata_code" : "FRADP",
  "lat" : "50.6956",
  "lon" : "3.16348",
  "name" : "Roubaix",
  "uic" : 87286732
} ], [ {
  "city" : "Tourcoing",
  "iata_code" : "FRADM",
  "lat" : "50.7168",
  "lon" : "3.16804",
  "name" : "Tourcoing",
  "uic" : 87286542
} ], [ {
  "city" : "Valenciennes",
  "iata_code" : "FRXVS",
  "lat" : "50.3633",
  "lon" : "3.517115",
  "name" : "Valenciennes",
  "uic" : 87343004
} ], [ {
  "city" : "Agen",
  "iata_code" : "FRAGF",
  "lat" : "44.2083",
  "lon" : "0.620932",
  "name" : "Agen",
  "uic" : 87586008
} ], [ {
  "city" : "Montauban",
  "iata_code" : "FRXMW",
  "lat" : "44.0144",
  "lon" : "1.341496",
  "name" : "Montauban Ville Bourbon",
  "uic" : 87611244
} ], [ {
  "city" : "Guingamp",
  "iata_code" : "FRGGP",
  "lat" : "48.5557",
  "lon" : "-3.143343",
  "name" : "Guingamp",
  "uic" : 87473207
} ], [ {
  "city" : "Morlaix",
  "iata_code" : "FRMXN",
  "lat" : "48.5780",
  "lon" : "-3.832514",
  "name" : "Morlaix",
  "uic" : 87474338
} ], [ {
  "city" : "Brest",
  "iata_code" : "FRBES",
  "lat" : "48.3881",
  "lon" : "-4.478903",
  "name" : "Brest",
  "uic" : 87474007
} ], [ {
  "city" : "Lamballe-Armor",
  "iata_code" : "FRLAM",
  "lat" : "48.4661",
  "lon" : "-2.511546",
  "name" : "Lamballe",
  "uic" : 87473108
} ], [ {
  "city" : "Plouaret",
  "iata_code" : "FRPLT",
  "lat" : "48.6063",
  "lon" : "-3.4668231",
  "name" : "Plouaret—Trégor",
  "uic" : 87473181
} ], [ {
  "city" : "Landerneau",
  "iata_code" : "FRXLD",
  "lat" : "48.4536",
  "lon" : "-4.256528",
  "name" : "Landerneau",
  "uic" : 87474239
} ], [ {
  "city" : "Vannes",
  "iata_code" : "FRVNE",
  "lat" : "47.6652",
  "lon" : "-2.75245",
  "name" : "Vannes",
  "uic" : 87476606
} ], [ {
  "city" : "Auray",
  "iata_code" : "FRXUY",
  "lat" : "47.6802",
  "lon" : "-2.999995",
  "name" : "Auray",
  "uic" : 87476200
} ], [ {
  "city" : "Lorient",
  "iata_code" : "FRLRT",
  "lat" : "47.7556",
  "lon" : "-3.366221",
  "name" : "Lorient",
  "uic" : 87476002
} ], [ {
  "city" : "Vitré",
  "iata_code" : "FRXVT",
  "lat" : "48.1227",
  "lon" : "-1.211754",
  "name" : "Vitré",
  "uic" : 87471508
} ], [ {
  "city" : "Quimper",
  "iata_code" : "FRUIP",
  "lat" : "47.9945",
  "lon" : "-4.092103",
  "name" : "Quimper",
  "uic" : 87474098
} ], [ {
  "city" : "Quimperlé",
  "iata_code" : "FRECO",
  "lat" : "47.8694",
  "lon" : "-3.552693",
  "name" : "Quimperlé",
  "uic" : 87476317
} ], [ {
  "city" : "Rosporden",
  "iata_code" : "FRRSP",
  "lat" : "47.9603",
  "lon" : "-3.832763",
  "name" : "Rosporden",
  "uic" : 87474155
} ], [ {
  "city" : "Saint-Malo",
  "iata_code" : "FRXSB",
  "lat" : "48.6469",
  "lon" : "-2.004158",
  "name" : "St-Malo",
  "uic" : 87478107
} ], [ {
  "city" : "Dol-de-Bretagne",
  "iata_code" : "FRDOL",
  "lat" : "48.5443",
  "lon" : "-1.750536",
  "name" : "Dol-de-Bretagne",
  "uic" : 87478073
} ], [ {
  "city" : "La Roche-sur-Yon",
  "iata_code" : "FRXRO",
  "lat" : "46.6721",
  "lon" : "-1.435621",
  "name" : "La Roche-sur-Yon",
  "uic" : 87486019
} ], [ {
  "city" : "Saint-Nazaire",
  "iata_code" : "FRSNR",
  "lat" : "47.2864",
  "lon" : "-2.211096",
  "name" : "St-Nazaire",
  "uic" : 87481705
} ], [ {
  "city" : "La Baule-Escoublac",
  "iata_code" : "FRJEE",
  "lat" : "47.2887",
  "lon" : "-2.389102",
  "name" : "La Baule-Escoublac",
  "uic" : 87481754
} ], [ {
  "city" : "Le Croisic",
  "iata_code" : "FREGU",
  "lat" : "47.2898",
  "lon" : "-2.507442",
  "name" : "Le Croisic",
  "uic" : 87481788
} ], [ {
  "city" : "Pornichet",
  "iata_code" : "FREGR",
  "lat" : "47.2705",
  "lon" : "-2.3445765",
  "name" : "Pornichet",
  "uic" : 87481747
} ], [ {
  "city" : "Le Pouliguen",
  "iata_code" : "FREGS",
  "lat" : "47.2825",
  "lon" : "-2.4331446",
  "name" : "Le Pouliguen",
  "uic" : 87481762
} ], [ {
  "city" : "Sablé-sur-Sarthe",
  "iata_code" : "FRSAB",
  "lat" : "47.8416",
  "lon" : "-0.3419359",
  "name" : "Sablé-sur-Sarthe",
  "uic" : 87396408
} ], [ {
  "city" : "Les Sables-d'Olonne",
  "iata_code" : "FRLSO",
  "lat" : "46.4999",
  "lon" : "-1.78105",
  "name" : "Les Sables-d’Olonne",
  "uic" : 87486449
} ], [ {
  "city" : "Biganos",
  "iata_code" : "FRFAC",
  "lat" : "44.6374",
  "lon" : "-0.96621",
  "name" : "Facture—Biganos",
  "uic" : 87582478
} ], [ {
  "city" : "Arcachon",
  "iata_code" : "FRXAC",
  "lat" : "44.6590",
  "lon" : "-1.16523",
  "name" : "Arcachon",
  "uic" : 87582668
} ], [ {
  "city" : "La Teste-de-Buch",
  "iata_code" : "FRFCJ",
  "lat" : "44.6369",
  "lon" : "-0.114295",
  "name" : "La Teste",
  "uic" : 87582643
} ], [ {
  "city" : "Libourne",
  "iata_code" : "FRXLR",
  "lat" : "44.9159",
  "lon" : "-0.236344",
  "name" : "Libourne",
  "uic" : 87584052
} ], [ {
  "city" : "Vendôme",
  "iata_code" : "FRESL",
  "lat" : "47.8219",
  "lon" : "1.021143",
  "name" : "Vendôme—Villiers-sur-Loir",
  "uic" : 87571216
} ], [ {
  "city" : "Châtellerault",
  "iata_code" : "FRXCX",
  "lat" : "46.8186",
  "lon" : "0.549279",
  "name" : "Châtellerault",
  "uic" : 87575142
} ], [ {
  "city" : "Dax",
  "iata_code" : "FRACG",
  "lat" : "43.7205",
  "lon" : "-1.050301",
  "name" : "Dax",
  "uic" : 87673202
} ], [ {
  "city" : "Bayonne",
  "iata_code" : "FRXBY",
  "lat" : "43.4968",
  "lon" : "-1.470306",
  "name" : "Bayonne",
  "uic" : 87673004
} ], [ {
  "city" : "Biarritz",
  "iata_code" : "FRBIQ",
  "lat" : "43.4594",
  "lon" : "-1.545915",
  "name" : "Biarritz",
  "uic" : 87673400
} ], [ {
  "city" : "Saint-Jean-de-Luz",
  "iata_code" : "FRXJZ",
  "lat" : "43.3858",
  "lon" : "-1.66122",
  "name" : "St-Jean-de-Luz—Ciboure",
  "uic" : 87677120
} ], [ {
  "city" : "Hendaye",
  "iata_code" : "FRAEF",
  "lat" : "43.3531",
  "lon" : "-1.781724",
  "name" : "Hendaye",
  "uic" : 87677005
} ], [ {
  "city" : "Niort",
  "iata_code" : "FRNIT",
  "lat" : "46.3195",
  "lon" : "-0.454639",
  "name" : "Niort",
  "uic" : 87485300
} ], [ {
  "city" : "Surgères",
  "iata_code" : "FREIP",
  "lat" : "46.1132",
  "lon" : "-0.762284",
  "name" : "Surgères",
  "uic" : 87485227
} ], [ {
  "city" : "La Rochelle",
  "iata_code" : "FRLRH",
  "lat" : "46.1527",
  "lon" : "-1.145305",
  "name" : "La Rochelle Ville",
  "uic" : 87485003
} ], [ {
  "city" : "Saint-Maixent-l'École",
  "iata_code" : "FREJC",
  "lat" : "46.4066",
  "lon" : "-0.201073",
  "name" : "St-Maixent",
  "uic" : 87485490
} ], [ {
  "city" : "Futuroscope",
  "iata_code" : "FRTGO",
  "lat" : "46.6699",
  "lon" : "0.377209",
  "name" : "Futuroscope",
  "uic" : 87324095
} ], [ {
  "city" : "Tours",
  "iata_code" : "FRAFW",
  "lat" : "47.3898",
  "lon" : "0.693703",
  "name" : "Tours",
  "uic" : 87571000
} ], [ {
  "city" : "Orthez",
  "iata_code" : "FRGFI",
  "lat" : "43.4842",
  "lon" : "-0.76776",
  "name" : "Orthez",
  "uic" : 87672253
} ], [ {
  "city" : "Pau",
  "iata_code" : "FRAEE",
  "lat" : "43.2918",
  "lon" : "-0.369626",
  "name" : "Pau",
  "uic" : 87672006
} ], [ {
  "city" : "Lourdes",
  "iata_code" : "FRLDE",
  "lat" : "43.1004",
  "lon" : "-0.042174",
  "name" : "Lourdes",
  "uic" : 87671339
} ], [ {
  "city" : "Tarbes",
  "iata_code" : "FRXTB",
  "lat" : "43.2400",
  "lon" : "0.069415",
  "name" : "Tarbes",
  "uic" : 87671008
} ], [ {
  "city" : "Saint-Brieuc",
  "iata_code" : "FRSBK",
  "lat" : "48.5076",
  "lon" : "-2.765",
  "name" : "St-Brieuc",
  "uic" : 87473009
} ], [ {
  "city" : "Lannion",
  "iata_code" : "FRLAI",
  "lat" : "48.7276",
  "lon" : "-3.460353",
  "name" : "Lannion",
  "uic" : 87473223
} ], [ {
  "city" : "Redon",
  "iata_code" : "FRXRN",
  "lat" : "47.6520",
  "lon" : "-2.08777",
  "name" : "Redon",
  "uic" : 87471300
} ], [ {
  "city" : "Luxembourg",
  "iata_code" : "LULUX",
  "lat" : "49.5997",
  "lon" : "6.134391",
  "name" : "Luxembourg",
  "uic" : 82001000
} ], [ {
  "city" : "Châteauroux",
  "iata_code" : "FRCHR",
  "lat" : "46.8097",
  "lon" : "1.699536",
  "name" : "Châteauroux",
  "uic" : 87597005
} ], [ {
  "city" : "La Souterraine",
  "iata_code" : "FRLST",
  "lat" : "46.2398",
  "lon" : "1.492151",
  "name" : "La Souterraine",
  "uic" : 87592378
} ], [ {
  "city" : "Uzerche",
  "iata_code" : "FRAAW",
  "lat" : "45.4407",
  "lon" : "1.5702735",
  "name" : "Uzerche",
  "uic" : 87594200
} ], [ {
  "city" : "Limoges",
  "iata_code" : "FRAGQ",
  "lat" : "45.8361",
  "lon" : "1.267356",
  "name" : "Limoges Bénédictins",
  "uic" : 87592006
} ], [ {
  "city" : "Brive-la-Gaillarde",
  "iata_code" : "FRBVE",
  "lat" : "45.1526",
  "lon" : "1.528655",
  "name" : "Brive-la-Gaillarde",
  "uic" : 87594002
} ], [ {
  "city" : "Argenton-sur-Creuse",
  "iata_code" : "FRFMT",
  "lat" : "46.5922",
  "lon" : "1.518305",
  "name" : "Argenton-sur-Creuse",
  "uic" : 87597120
} ], [ {
  "city" : "Vierzon",
  "iata_code" : "FRXVZ",
  "lat" : "47.2265",
  "lon" : "2.059822",
  "name" : "Vierzon",
  "uic" : 87576009
} ], [ {
  "city" : "Issoudun",
  "iata_code" : "FRFMN",
  "lat" : "46.9488",
  "lon" : "1.985834",
  "name" : "Issoudun",
  "uic" : 87597062
} ], [ {
  "city" : "Gourdon",
  "iata_code" : "FRFSI",
  "lat" : "44.7419",
  "lon" : "1.389237",
  "name" : "Gourdon",
  "uic" : 87613141
} ], [ {
  "city" : "Souillac",
  "iata_code" : "FRSOU",
  "lat" : "44.9021",
  "lon" : "1.466605",
  "name" : "Souillac",
  "uic" : 87594333
} ], [ {
  "city" : "Caussade",
  "iata_code" : "FRFTA",
  "lat" : "44.1623",
  "lon" : "1.5336541",
  "name" : "Caussade (Tarn-et-Garonne)",
  "uic" : 87613356
} ], [ {
  "city" : "Cahors",
  "iata_code" : "FRZAO",
  "lat" : "44.4493",
  "lon" : "1.433325",
  "name" : "Cahors",
  "uic" : 87613000
} ], [ {
  "city" : "Fleury-les-Aubrais",
  "iata_code" : "FRLAB",
  "lat" : "47.9268",
  "lon" : "1.906629",
  "name" : "Les Aubrais",
  "uic" : 87543017
} ], [ {
  "city" : "Marmande",
  "iata_code" : "FRXMR",
  "lat" : "44.5030",
  "lon" : "0.168044",
  "name" : "Marmande",
  "uic" : 87586545
} ], [ {
  "city" : "Arles",
  "iata_code" : "FRHZA",
  "lat" : "43.6849",
  "lon" : "4.63203",
  "name" : "Arles",
  "uic" : 87753657
} ], [ {
  "city" : "Nevers",
  "iata_code" : "FRNVS",
  "lat" : "46.9873",
  "lon" : "3.150743",
  "name" : "Nevers",
  "uic" : 87696005
} ], [ {
  "city" : "Riom",
  "iata_code" : "FRRIO",
  "lat" : "45.8900",
  "lon" : "3.120498",
  "name" : "Riom—Châtel-Guyon",
  "uic" : 87734053
} ], [ {
  "city" : "Vichy",
  "iata_code" : "FRVHY",
  "lat" : "46.1270",
  "lon" : "3.430448",
  "name" : "Vichy",
  "uic" : 87732008
} ], [ {
  "city" : "Les Cabannes",
  "iata_code" : "FRFQK",
  "lat" : "42.7862854",
  "lon" : "1.6862985",
  "name" : "Les Cabannes",
  "uic" : 87611574
} ], [ {
  "city" : "Moulins",
  "iata_code" : "FRXMU",
  "lat" : "46.5613",
  "lon" : "3.338842",
  "name" : "Moulins-sur-Allier",
  "uic" : 87696328
} ], [ {
  "city" : "Clermont-Ferrand",
  "iata_code" : "FRCFE",
  "lat" : "45.7789",
  "lon" : "3.100543",
  "name" : "Clermont-Ferrand",
  "uic" : 87734004
} ], [ {
  "city" : "L'Isle-de-Noé",
  "iata_code" : "FRSUF",
  "lat" : "43.5951",
  "lon" : "0.392403",
  "name" : "Montpellier Sud de France",
  "uic" : 87688887
} ], [ {
  "city" : "Ancenis-Saint-Géréon",
  "iata_code" : "FREFN",
  "lat" : "47.3693",
  "lon" : "-1.177763",
  "name" : "Ancenis",
  "uic" : 87481192
} ], [ {
  "city" : "Saint-Germain-des-Fossés",
  "iata_code" : "FRSGF",
  "lat" : "46.2092",
  "lon" : "3.430614",
  "name" : "St-Germain-des-Fossés",
  "uic" : 87732206
} ], [ {
  "city" : "Saint-Avre",
  "iata_code" : "FRHOJ",
  "lat" : "45.3531",
  "lon" : "6.3028277",
  "name" : "St-Avre—La Chambre",
  "uic" : 87741306
} ], [ {
  "city" : "Landry",
  "iata_code" : "FRHPG",
  "lat" : "45.5742",
  "lon" : "6.7338182",
  "name" : "Landry",
  "uic" : 87741777
} ], [ {
  "city" : "Aime-la-Plagne",
  "iata_code" : "FRQAI",
  "lat" : "45.5544",
  "lon" : "6.648646",
  "name" : "Aime-la-Plagne",
  "uic" : 87741769
} ], [ {
  "city" : "Moûtiers",
  "iata_code" : "FRQMU",
  "lat" : "45.4863",
  "lon" : "6.531425",
  "name" : "Moûtiers—Salins",
  "uic" : 87741728
} ], [ {
  "city" : "Monaco",
  "iata_code" : "FRXMM",
  "lat" : "43.7382",
  "lon" : "7.419606",
  "name" : "Monaco—Monte-Carlo",
  "uic" : 87756403
} ], [ {
  "city" : "Sélestat",
  "iata_code" : "FRXSQ",
  "lat" : "48.2601",
  "lon" : "7.443278",
  "name" : "Sélestat",
  "uic" : 87214056
} ], [ {
  "city" : "Saint-Michel-de-Maurienne",
  "iata_code" : "FRXVR",
  "lat" : "45.2169",
  "lon" : "6.4719135",
  "name" : "St-Michel—Valloire",
  "uic" : 87742361
} ], [ {
  "city" : "Bourg-Saint-Maurice",
  "iata_code" : "FRQBM",
  "lat" : "45.6190",
  "lon" : "6.771273",
  "name" : "Bourg-St-Maurice",
  "uic" : 87741793
} ], [ {
  "city" : "Albertville",
  "iata_code" : "FRXAV",
  "lat" : "45.6730",
  "lon" : "6.383167",
  "name" : "Albertville",
  "uic" : 87741645
} ], [ {
  "city" : "Argelès-sur-Mer",
  "iata_code" : "FRARM",
  "lat" : "42.54397",
  "lon" : "3.022349",
  "name" : "Argelès-sur-Mer",
  "uic" : 87784231
} ], [ {
  "city" : "Port-la-Nouvelle",
  "iata_code" : "FRILP",
  "lat" : "43.0199342",
  "lon" : "3.0388188",
  "name" : "Port-la-Nouvelle",
  "uic" : 87781062
} ], [ {
  "city" : "Leucate—La-Franqui",
  "iata_code" : "FRILQ",
  "lat" : "42.9327725",
  "lon" : "3.0128555",
  "name" : "Leucate—La-Franqui",
  "uic" : 87781088
} ], [ {
  "city" : "Collioure",
  "iata_code" : "FRXCU",
  "lat" : "42.5269437",
  "lon" : "3.0782319",
  "name" : "Collioure",
  "uic" : 87784256
} ], [ {
  "city" : "Port-Vendres",
  "iata_code" : "FRXPV",
  "lat" : "42.5136077",
  "lon" : "3.1025762",
  "name" : "Port-Vendres",
  "uic" : 87784264
} ], [ {
  "city" : "Die",
  "iata_code" : "FRDIE",
  "lat" : "44.7582549",
  "lon" : "5.3632053",
  "name" : "Die",
  "uic" : 87761841
} ], [ {
  "city" : "Gap",
  "iata_code" : "FRGAT",
  "lat" : "44.563693",
  "lon" : "6.085638",
  "name" : "Gap",
  "uic" : 87763003
} ], [ {
  "city" : "Veynes—Dévoluy",
  "iata_code" : "FRVDY",
  "lat" : "44.5320046",
  "lon" : "5.815764",
  "name" : "Veynes—Dévoluy",
  "uic" : 87763300
} ], [ {
  "city" : "Elne",
  "iata_code" : "FRIOG",
  "lat" : "42.5971138",
  "lon" : "2.9635851",
  "name" : "Elne",
  "uic" : 87784207
} ], [ {
  "city" : "Montdauphin—Guillestre",
  "iata_code" : "FRIGZ",
  "lat" : "44.6746283",
  "lon" : "6.6156027",
  "name" : "Montdauphin—Guillestre",
  "uic" : 87763508
} ], [ {
  "city" : "L’Argentière—Les-Ecrins",
  "iata_code" : "FRIHC",
  "lat" : "44.7909802",
  "lon" : "6.5564162",
  "name" : "L’Argentière—Les-Ecrins",
  "uic" : 87763557
} ], [ {
  "city" : "Lézignan-Corbières",
  "iata_code" : "FRFUX",
  "lat" : "43.1999609",
  "lon" : "2.7699635",
  "name" : "Lézignan-Corbières",
  "uic" : 87615112
} ], [ {
  "city" : "Crest",
  "iata_code" : "FRCRE",
  "lat" : "44.7301546",
  "lon" : "5.0160968",
  "name" : "Crest",
  "uic" : 87761783
} ], [ {
  "city" : "Embrun",
  "iata_code" : "FRIGV",
  "lat" : "44.567008",
  "lon" : "6.496773",
  "name" : "Embrun",
  "uic" : 87763466
} ], [ {
  "city" : "Briançon",
  "iata_code" : "FRXBC",
  "lat" : "44.889853",
  "lon" : "6.633007",
  "name" : "Briançon",
  "uic" : 87763607
} ], [ {
  "city" : "Castelnaudary",
  "iata_code" : "FRCTY",
  "lat" : "43.312292",
  "lon" : "1.950390",
  "name" : "Castelnaudary",
  "uic" : 87615039
} ], [ {
  "city" : "Banyuls-sur-Mer",
  "iata_code" : "FRXBU",
  "lat" : "42.4829582",
  "lon" : "3.1250496",
  "name" : "Banyuls-sur-Mer",
  "uic" : 87784298
} ], [ {
  "city" : "Chorges",
  "iata_code" : "FRIGS",
  "lat" : "44.5458415",
  "lon" : "6.2718887",
  "name" : "Chorges",
  "uic" : 87763425
} ], [ {
  "city" : "Cerbère",
  "iata_code" : "FRXCE",
  "lat" : "42.4417732",
  "lon" : "3.1634033",
  "name" : "Cerbère",
  "uic" : 87785006
} ], [ {
  "city" : "Luc-en-Diois",
  "iata_code" : "FRIFP",
  "lat" : "44.6136615",
  "lon" : "5.4546227",
  "name" : "Luc-en-Diois",
  "uic" : 87761874
} ], [ {
  "city" : "Nurieux",
  "iata_code" : "FRHQN",
  "lat" : "46.1842195",
  "lon" : "5.5327486",
  "name" : "Nurieux",
  "uic" : 87743351
} ], [ {
  "city" : "Figeac",
  "iata_code" : "FRFIG",
  "lat" : "44.603515",
  "lon" : "2.037355",
  "name" : "Figeac",
  "uic" : 87613091
} ], [ {
  "city" : "Rocamadour",
  "iata_code" : "FRFSA",
  "lat" : "44.8183562",
  "lon" : "1.6573487",
  "name" : "Rocamadour—Padirac",
  "uic" : 87613042
} ], [ {
  "city" : "Gramat",
  "iata_code" : "FRFSB",
  "lat" : "44.7734284",
  "lon" : "1.7223028",
  "name" : "Gramat",
  "uic" : 87613059
} ], [ {
  "city" : "St-Christophe",
  "iata_code" : "FRFST",
  "lat" : "44.464619",
  "lon" : "2.4077585",
  "name" : "St-Christophe",
  "uic" : 87613257
} ], [ {
  "city" : "Viviez—Decazeville",
  "iata_code" : "FRVZD",
  "lat" : "44.5555678",
  "lon" : "2.2182582",
  "name" : "Viviez—Decazeville",
  "uic" : 87613661
} ], [ {
  "city" : "Capdenac",
  "iata_code" : "FRCDC",
  "lat" : "44.5782458",
  "lon" : "2.0779632",
  "name" : "Capdenac",
  "uic" : 87613109
} ], [ {
  "city" : "Assier",
  "iata_code" : "FRFSD",
  "lat" : "44.666667",
  "lon" : "1.883333",
  "name" : "Assier",
  "uic" : 87165472
} ], [ {
  "city" : "Aubin",
  "iata_code" : "FRFSQ",
  "lat" : "44.5272762",
  "lon" : "2.2393128",
  "name" : "Aubin",
  "uic" : 87613224
} ], [ {
  "city" : "Cransac",
  "iata_code" : "FRFSR",
  "lat" : "44.522951",
  "lon" : "2.2718666",
  "name" : "Cransac",
  "uic" : 87613232
} ], [ {
  "city" : "Rodez",
  "iata_code" : "FRRDZ",
  "lat" : "44.362633",
  "lon" : "2.580560",
  "name" : "Rodez",
  "uic" : 87613422
} ], [ {
  "city" : "St-Denis-près-Martel",
  "iata_code" : "FRSDM",
  "lat" : "44.9459316",
  "lon" : "1.6663378",
  "name" : "St-Denis-près-Martel",
  "uic" : 87594572
} ], [ {
  "city" : "Cluses",
  "iata_code" : "FRHTZ",
  "lat" : "46.061447",
  "lon" : "6.582663",
  "name" : "Cluses",
  "uic" : 87746370
} ], [ {
  "city" : "St-Gervais-les-Bains",
  "iata_code" : "FRXGF",
  "lat" : "45.906423",
  "lon" : "6.701331",
  "name" : "St-Gervais-les-Bains—Le Fayet",
  "uic" : 87746479
} ], [ {
  "city" : "Megève",
  "iata_code" : "FRXSN",
  "lat" : "45.935702",
  "lon" : "6.636431",
  "name" : "Sallanches—Combloux—Megève",
  "uic" : 87746438
} ], [ {
  "city" : "Frasne",
  "iata_code" : "FRFRA",
  "lat" : "46.857596",
  "lon" : "6.157767",
  "name" : "Frasne",
  "uic" : 87715136
} ], [ {
  "city" : "Mouchard",
  "iata_code" : "FRMCD",
  "lat" : "46.976911",
  "lon" : "5.799644",
  "name" : "Mouchard",
  "uic" : 87718833
} ], [ {
  "city" : "Albi",
  "iata_code" : "FRAFJ",
  "lat" : "43.922380",
  "lon" : "2.137958",
  "name" : "Albi Ville",
  "uic" : 87615005
}, {
  "city" : "Albi",
  "iata_code" : "FRAMA",
  "lat" : "43.938011",
  "lon" : "2.1409629",
  "name" : "Albi Madelaine",
  "uic" : 87615195
} ], [ {
  "city" : "Latour de Carol",
  "iata_code" : "FRXTE",
  "lat" : "42.4590464",
  "lon" : "1.9045027",
  "name" : "Latour de Carol - Enveitg",
  "uic" : 87611483
} ], [ {
  "city" : "Auterive",
  "iata_code" : "FRFPW",
  "lat" : "43.348993",
  "lon" : "1.468831",
  "name" : "Auterive",
  "uic" : 87611384
} ], [ {
  "city" : "Luzenac",
  "iata_code" : "FRFQI",
  "lat" : "42.7642849",
  "lon" : "1.7531248",
  "name" : "Luzenac-Garanou",
  "uic" : 87611558
} ], [ {
  "city" : "Tarascon-sur-Ariège",
  "iata_code" : "FRFQM",
  "lat" : "42.8495385",
  "lon" : "1.5999321",
  "name" : "Tarascon-sur-Ariège",
  "uic" : 87611590
} ], [ {
  "city" : "L’Hospitalet-près-l’Andorre",
  "iata_code" : "FRFQG",
  "lat" : "42.5894535",
  "lon" : "1.8002635",
  "name" : "Andorre",
  "uic" : 87611517
} ], [ {
  "city" : "Carmaux",
  "iata_code" : "FRFWA",
  "lat" : "44.048782",
  "lon" : "2.152401",
  "name" : "Carmaux",
  "uic" : 87615625
} ], [ {
  "city" : "Pamiers",
  "iata_code" : "FRPMS",
  "lat" : "43.116207",
  "lon" : "1.619451",
  "name" : "Pamiers",
  "uic" : 87611343
} ], [ {
  "city" : "Porté-Puymorens",
  "iata_code" : "FRFQF",
  "lat" : "42.539136",
  "lon" : "1.8248462",
  "name" : "Porté-Puymorens",
  "uic" : 87611509
} ], [ {
  "city" : "Mérens-les-Vals",
  "iata_code" : "FRFQH",
  "lat" : "42.6594883",
  "lon" : "1.8371278",
  "name" : "Mérens-les-Vals",
  "uic" : 87611525
} ], [ {
  "city" : "Ax-les-Thermes",
  "iata_code" : "FRXLT",
  "lat" : "42.7247967",
  "lon" : "1.8332516",
  "name" : "Ax-les-Thermes",
  "uic" : 87611533
} ], [ {
  "city" : "Foix",
  "iata_code" : "FRXFX",
  "lat" : "42.969746",
  "lon" : "1.607147",
  "name" : "Foix",
  "uic" : 87611616
} ] ]
